City,Lat,Lng,Max Temp,Humidity,Cloudiness,Wind Speed,Country,Date
Bredasdorp,-34.5322,20.0403,62.6,94,58,5.75,ZA,1616557552
Władysławowo,54.7909,18.4009,41.0,81,90,8.05,PL,1616557552
Chapais,49.7834,-74.8492,37.4,52,90,4.61,CA,1616557553
Neuquén,-38.9516,-68.0591,69.8,46,0,11.5,AR,1616557553
Albany,42.6001,-73.9662,52.0,60,100,3.2,US,1616557425
Tuktoyaktuk,69.4541,-133.0374,-2.2,71,75,11.5,CA,1616557555
Hermanus,-34.4187,19.2345,66.99,83,12,8.01,ZA,1616557555
Port Elizabeth,-33.918,25.5701,66.2,88,0,9.22,ZA,1616557555
Qaanaaq,77.484,-69.3632,-22.99,63,96,6.26,GL,1616557556
Kaitangata,-46.2817,169.8464,57.99,74,99,5.99,NZ,1616557556
Grand Island,40.925,-98.342,42.8,87,90,21.85,US,1616557557
Kapaa,22.0752,-159.319,77.0,50,1,9.22,US,1616557353
Punta Arenas,-53.15,-70.9167,41.0,75,0,31.07,CL,1616557557
Wanning,18.8003,110.3967,79.03,68,17,9.75,CN,1616557558
São Miguel do Araguaia,-13.275,-50.1628,72.77,86,100,2.01,BR,1616557558
Jamestown,42.097,-79.2353,55.4,58,75,12.01,US,1616557559
Rikitea,-23.1203,-134.9692,80.28,74,15,11.43,PF,1616557559
Bluff,-46.6,168.3333,59.0,71,76,3.0,NZ,1616557559
Mandalī,33.7499,45.5541,78.55,31,100,34.67,IQ,1616557560
Felipe Carrillo Puerto,19.5833,-88.05,72.0,97,8,3.8,MX,1616557560
East London,-33.0153,27.9116,59.0,94,0,3.44,ZA,1616557560
Severo-Kuril'sk,50.6789,156.125,34.14,88,90,16.64,RU,1616557561
New Norfolk,-42.7826,147.0587,62.01,84,100,6.2,AU,1616557561
Saint-Philippe,-21.3585,55.7679,80.6,69,0,4.61,RE,1616557562
Buin,-33.7333,-70.75,64.99,67,0,6.91,CL,1616557562
Ushuaia,-54.8,-68.3,42.8,93,75,34.52,AR,1616557563
Tasiilaq,65.6145,-37.6368,6.8,72,10,6.91,GL,1616557563
Mayo,38.8876,-76.5119,53.6,94,90,8.05,US,1616557564
Port Hardy,50.6996,-127.4199,42.8,93,90,6.91,CA,1616557564
Port Alfred,-33.5906,26.891,66.4,80,98,14.18,ZA,1616557565
Kavieng,-2.5744,150.7967,81.14,79,100,9.48,PG,1616557565
Alpena,45.0617,-83.4327,44.6,61,75,5.75,US,1616557565
Pevek,69.7008,170.3133,4.64,84,100,4.47,RU,1616557566
Bathsheba,13.2167,-59.5167,77.0,57,40,19.57,BB,1616557409
Umluj,25.0213,37.2685,84.2,32,0,21.77,SA,1616557566
Genhe,50.7833,121.5167,34.07,65,96,6.49,CN,1616557567
Faya,18.3851,42.4509,57.2,26,0,5.75,SA,1616557567
Kandrian,-6.2167,149.55,83.8,77,97,3.29,PG,1616557568
Zarand,30.8127,56.564,64.74,24,0,2.59,IR,1616557568
Pangnirtung,66.1451,-65.7125,-31.05,96,96,4.88,CA,1616557569
Waipawa,-41.4122,175.5153,66.0,82,90,14.97,NZ,1616557569
Baykit,61.67,96.37,17.78,86,95,2.91,RU,1616557570
Big Bend,-26.8167,31.9333,69.8,88,100,2.3,SZ,1616557570
Chokurdakh,70.6333,147.9167,-6.48,94,100,9.84,RU,1616557571
Zhangaözen,43.3,52.8,47.79,58,98,24.07,KZ,1616557571
Kirakira,-10.4544,161.9205,84.0,74,85,5.5,SB,1616557572
Hobart,-42.8794,147.3294,62.01,88,75,10.36,AU,1616557572
Grand-Santi,4.25,-54.3833,72.97,99,100,1.81,GF,1616557573
Makakilo City,21.3469,-158.0858,75.2,83,90,6.91,US,1616557573
Oranjemund,-28.55,16.4333,63.55,84,0,4.88,NA,1616557574
Sechura,-5.5569,-80.8222,74.89,71,98,16.26,PE,1616557575
Niono,14.2526,-5.993,78.19,16,68,10.56,ML,1616557575
Avarua,-21.2078,-159.775,84.2,79,20,10.36,CK,1616557576
Salta,-24.7859,-65.4117,60.8,94,40,4.61,AR,1616557576
Linjiang,41.8069,126.9078,51.21,51,100,4.72,CN,1616557576
Atuona,-9.8,-139.0333,80.92,72,100,18.19,PF,1616557577
Bengkulu,-3.8004,102.2655,80.98,73,94,2.53,ID,1616557577
Mataura,-46.1927,168.8643,59.0,71,100,3.0,NZ,1616557578
Mergen,49.1833,125.2167,39.29,38,48,6.24,CN,1616557578
Kruisfontein,-34.0033,24.7314,61.0,92,100,1.99,ZA,1616557579
Nagato,34.3833,131.2,60.8,71,75,5.75,JP,1616557579
Nago,26.5881,127.9761,71.6,64,75,11.5,JP,1616557580
Isangel,-19.55,169.2667,82.4,69,75,10.22,VU,1616557580
Mnogovershinnyy,53.9353,139.9242,10.6,65,1,22.93,RU,1616557581
Waltershausen,50.9,10.5667,37.99,82,1,4.16,DE,1616557581
Port-Gentil,-0.7193,8.7815,79.99,77,100,13.67,GA,1616557582
Tadine,-21.55,167.8833,76.96,65,97,9.62,NC,1616557582
San Cristobal,7.7669,-72.225,67.17,92,84,0.87,VE,1616557582
Richards Bay,-28.783,32.0377,68.07,81,100,3.42,ZA,1616557583
Yumen,40.2833,97.2,53.78,9,37,15.43,CN,1616557380
Badamdar,40.3394,49.8039,50.0,100,40,18.41,AZ,1616557583
Porto Murtinho,-21.6989,-57.8825,75.11,73,44,2.48,BR,1616557584
Caravelas,-17.7125,-39.2481,74.46,88,0,3.89,BR,1616557584
Hilo,19.7297,-155.09,77.0,69,20,11.5,US,1616557354
Zhicheng,30.2956,111.5047,69.66,45,0,5.61,CN,1616557585
Dukat,62.55,155.55,-0.65,81,59,3.06,RU,1616557348
Geraldton,-28.7667,114.6,80.6,29,0,13.8,AU,1616557349
Touros,-5.1989,-35.4608,75.2,94,20,3.44,BR,1616557586
Ulety,51.3572,112.4849,38.17,73,99,7.18,RU,1616557586
Palmer,42.1584,-72.3287,45.0,78,97,3.09,US,1616557586
Saskylakh,71.9167,114.0833,-15.97,89,94,5.77,RU,1616557587
Roald,62.5833,6.1333,44.6,70,90,20.71,NO,1616557587
Harrai,22.6167,79.2167,86.59,22,88,5.32,IN,1616557587
Aasiaat,68.7098,-52.8699,-14.89,95,97,6.49,GL,1616557587
Barrow,71.2906,-156.7887,-9.4,70,1,10.36,US,1616557588
Mogadishu,2.0371,45.3438,78.71,75,59,12.17,SO,1616557294
Aksu,41.1231,80.2644,55.89,30,65,3.58,CN,1616557588
George Town,5.4112,100.3354,86.0,74,20,3.44,MY,1616557533
Porbandar,21.6422,69.6093,69.8,94,0,3.44,IN,1616557589
Dori,14.0354,-0.0345,81.39,9,85,12.19,BF,1616557589
Hong Kong,22.2855,114.1577,73.0,66,63,1.01,HK,1616557589
Nabire,-3.3667,135.4833,87.19,63,90,5.19,ID,1616557338
Amboasary,-25.0333,46.3833,73.4,94,40,4.38,MG,1616557590
Norman Wells,65.282,-126.8329,8.6,56,40,13.8,CA,1616557590
Cherskiy,68.75,161.3,9.73,91,100,4.94,RU,1616557590
Ribeira Grande,38.5167,-28.7,55.53,56,28,8.9,PT,1616557591
Fairbanks,64.8378,-147.7164,17.6,67,75,5.75,US,1616557591
Iwaki,37.05,140.8833,63.0,51,3,5.01,JP,1616557591
Vangaindrano,-23.35,47.6,73.38,93,77,3.13,MG,1616557592
Bethel,41.3712,-73.414,46.4,71,1,2.15,US,1616557592
Cabo San Lucas,22.8909,-109.9124,64.99,70,43,15.95,MX,1616557583
Carnarvon,-24.8667,113.6333,78.8,57,6,13.8,AU,1616557399
Tiksi,71.6872,128.8694,-15.38,97,98,2.51,RU,1616557592
Alofi,-19.0595,-169.9187,80.6,89,40,6.91,NU,1616557593
São Filipe,14.8961,-24.4956,70.56,75,7,7.7,CV,1616557593
Lebu,-37.6167,-73.65,56.08,90,20,17.85,CL,1616557593
Stokmarknes,68.5646,14.9108,43.0,90,100,21.99,NO,1616557594
Butaritari,3.0707,172.7902,81.91,78,15,20.67,KI,1616557594
Sinnamary,5.3833,-52.95,75.99,89,97,11.32,GF,1616557595
Koppang,61.5706,11.0555,31.48,95,88,5.01,NO,1616557595
Yerbogachën,61.2767,108.0108,16.09,81,97,8.95,RU,1616557595
Jalu,29.0331,21.5482,53.28,57,0,19.55,LY,1616557596
Fortuna,40.5982,-124.1573,48.99,87,1,9.22,US,1616557572
Sobolevo,54.4299,31.8996,12.0,95,14,3.56,RU,1616557596
Airai,-8.9266,125.4092,70.23,78,55,0.6,TL,1616557597
El Salvador,13.8333,-88.9167,75.2,88,20,1.14,SV,1616557325
Debre Birhan,9.6833,39.5333,48.13,36,2,5.03,ET,1616557598
Yellowknife,62.456,-114.3525,-4.0,59,20,9.22,CA,1616557364
Rio Bonito,-22.7086,-42.6097,77.0,88,0,2.3,BR,1616557598
Bowen,-20.0167,148.2333,91.4,66,79,10.36,AU,1616557599
Inta,66.0317,60.1659,22.59,84,100,16.71,RU,1616557599
Kuusamo,65.9667,29.1833,28.4,93,0,4.61,FI,1616557599
Vaini,-21.2,-175.2,73.4,94,90,13.8,TO,1616557572
Posse,-14.0931,-46.3694,68.38,64,50,3.31,BR,1616557600
Ostrovnoy,68.0531,39.5131,25.97,82,8,20.31,RU,1616557600
Ancud,-41.8697,-73.8203,46.99,91,100,5.01,CL,1616557600
Busselton,-33.65,115.3333,70.25,38,31,2.19,AU,1616557601
Bemidji,47.4736,-94.8803,42.01,60,75,9.22,US,1616557601
Tuatapere,-46.1333,167.6833,59.0,71,85,3.0,NZ,1616557601
Trairi,-3.2778,-39.2689,76.46,86,18,4.52,BR,1616557602
Smithers,54.7804,-127.1743,37.4,87,90,3.44,CA,1616557602
Chanute,37.6792,-95.4572,51.8,76,90,12.66,US,1616557603
Iqaluit,63.7506,-68.5145,-25.01,68,20,6.91,CA,1616557603
Nioro,13.35,-15.75,74.01,32,16,8.63,GM,1616557603
Shelburne,44.0787,-80.2041,44.01,52,1,2.3,CA,1616557604
Lompoc,34.6391,-120.4579,53.6,66,1,9.22,US,1616557604
Asău,46.4333,26.4,28.4,80,40,12.66,RO,1616557605
Peruíbe,-24.32,-46.9983,74.52,93,60,2.55,BR,1616557605
Gibara,21.1097,-76.1317,75.2,83,20,3.44,CU,1616557605
Port Hedland,-20.3167,118.5667,93.2,43,51,10.36,AU,1616557606
Changanācheri,9.4667,76.55,86.38,59,55,1.88,IN,1616557606
Savonlinna,61.8699,28.88,39.2,75,0,6.91,FI,1616557606
Dubti,11.7361,41.0853,75.99,27,4,4.68,ET,1616557607
Provideniya,64.3833,-173.3,30.99,95,100,16.64,RU,1616557607
Luanda,-8.8368,13.2343,76.95,86,100,6.6,AO,1616557388
Preobrazheniye,42.9019,133.9064,44.47,64,100,5.08,RU,1616557607
Thompson,55.7435,-97.8558,3.2,55,40,5.75,CA,1616557608
Teknāf,20.8624,92.3058,87.64,46,2,4.5,BD,1616557608
Leningradskiy,69.3833,178.4167,3.97,93,100,6.8,RU,1616557609
General Roca,-39.0333,-67.5833,69.8,46,0,11.5,AR,1616557609
Hasaki,35.7333,140.8333,68.0,39,20,11.5,JP,1616557609
Longyearbyen,78.2186,15.6401,24.8,68,75,1.14,SJ,1616557610
Batagay-Alyta,67.8006,130.4114,-5.13,85,100,3.87,RU,1616557610
Kenora,49.8167,-94.4337,37.4,60,75,9.22,CA,1616557450
Nikolskoye,59.7035,30.7861,36.0,75,0,4.47,RU,1616557611
Vilyuysk,63.7553,121.6247,0.28,84,98,3.11,RU,1616557611
Urusha,54.05,122.9,26.08,80,90,2.8,RU,1616557612
Bereket,39.2446,55.5154,63.79,40,100,10.22,TM,1616557612
Barcelos,41.5388,-8.6151,46.0,100,20,1.14,PT,1616557612
Oistins,13.0667,-59.5333,77.0,57,40,19.57,BB,1616557440
Bilibino,68.0546,166.4372,9.25,87,100,1.57,RU,1616557613
Yatou,37.15,122.3833,57.0,54,39,13.85,CN,1616557614
Saint George,37.1041,-113.5841,53.01,35,1,27.63,US,1616557614
Hithadhoo,-0.6,73.0833,83.1,72,64,8.28,MV,1616557614
Arlit,18.7369,7.3853,75.83,14,88,8.23,NE,1616557614
Ilulissat,69.2167,-51.1,-5.8,65,75,11.5,GL,1616557615
Kiryat Gat,31.61,34.7642,60.01,100,4,1.99,IL,1616557349
Uruçuí,-7.2294,-44.5561,75.81,78,85,1.68,BR,1616557616
Nemuro,43.3236,145.575,51.8,50,20,11.5,JP,1616557616
Yichun,47.7,128.9,39.54,47,35,1.59,CN,1616557617
Coquimbo,-29.9533,-71.3436,59.0,82,0,3.44,CL,1616557617
Clarence Town,-32.5833,151.7833,84.0,47,40,24.16,AU,1616557617
Nantucket,41.2835,-70.0995,43.0,88,74,8.25,US,1616557516
Andros,37.8333,24.9333,48.0,48,44,15.01,GR,1616557618
Chui,-33.6971,-53.4616,64.62,85,15,5.53,UY,1616557619
Saint Paul Harbor,57.79,-152.4072,33.8,51,1,12.66,US,1616557619
Lagoa,39.05,-27.9833,54.68,52,15,4.45,PT,1616557620
Clyde River,70.4692,-68.5914,-18.4,69,90,6.91,CA,1616557436
Cap-aux-Meules,47.3821,-61.8597,44.6,53,99,14.97,CA,1616557620
Castro,-24.7911,-50.0119,64.18,90,97,0.92,BR,1616557620
Lorengau,-2.0226,147.2712,85.15,68,83,5.77,PG,1616557621
Solnechnyy,50.7214,136.6319,29.95,37,33,8.3,RU,1616557621
Arraial do Cabo,-22.9661,-42.0278,75.25,86,0,3.58,BR,1616557622
Kahului,20.8947,-156.47,78.8,65,40,5.75,US,1616557622
Erenhot,43.6475,111.9767,51.96,21,0,15.19,CN,1616557622
Saint-Pierre,-21.3393,55.4781,80.6,69,0,4.61,RE,1616557623
Flin Flon,54.7682,-101.865,7.29,91,78,4.88,CA,1616557623
Yate,51.5407,-2.4184,46.0,96,100,1.01,GB,1616557624
Port Hawkesbury,45.6169,-61.3485,44.6,61,1,6.91,CA,1616557481
Kukuna,9.4,-12.6667,75.67,70,100,3.98,SL,1616557625
Stephenville,32.2207,-98.2023,60.01,54,1,3.44,US,1616557625
Sangmélima,2.9333,11.9833,67.26,98,100,2.35,CM,1616557625
Le Portel,50.7056,1.5757,33.8,93,56,4.61,FR,1616557626
Cape Town,-33.9258,18.4232,68.0,77,0,2.3,ZA,1616557173
Rincon,32.296,-81.2354,57.2,94,40,5.75,US,1616557602
Pacifica,37.6138,-122.4869,62.6,76,20,16.11,US,1616557492
Makkah al Mukarramah,21.4267,39.8261,79.27,23,0,3.04,SA,1616557627
Zhuangyuan,37.2975,120.8256,63.52,34,85,5.06,CN,1616557628
Klyavlino,54.2649,52.0267,22.35,98,97,2.13,RU,1616557628
Upernavik,72.7868,-56.1549,-14.87,96,99,0.78,GL,1616557628
Flinders,-34.5833,150.8552,82.99,50,0,8.01,AU,1616557629
Khatanga,71.9667,102.5,-2.67,89,100,3.76,RU,1616557629
Buraidah,26.326,43.975,71.6,30,0,9.22,SA,1616557630
Pyaozerskiy,65.8333,31.1667,35.02,98,100,10.38,RU,1616557630
Portland,45.5234,-122.6762,48.99,61,64,0.89,US,1616557080
Puerto Ayora,-0.7393,-90.3518,75.0,95,30,2.57,EC,1616557594
Mahébourg,-20.4081,57.7,77.0,94,20,3.44,MU,1616557632
Aniva,46.7144,142.5294,39.2,33,20,11.18,RU,1616557632
Mulegé,26.8833,-111.9833,61.83,61,67,7.27,MX,1616557633
North Bend,43.4065,-124.2243,46.4,87,1,17.27,US,1616557633
Katsuura,35.1333,140.3,66.0,45,20,17.27,JP,1616557368
Sena Madureira,-9.0656,-68.6569,70.92,98,81,0.45,BR,1616557634
Butembo,0.15,29.2833,57.7,82,57,2.53,CD,1616557634
Leh,34.1667,77.5833,28.51,64,100,6.46,IN,1616557634
Sioux Lookout,50.1001,-91.917,39.2,41,90,4.61,CA,1616557635
Wernigerode,51.8333,10.7833,39.0,89,3,4.16,DE,1616557635
Dali,25.7,100.1833,70.38,24,0,7.54,CN,1616557636
Sirte,31.2089,16.5887,56.79,49,92,23.47,LY,1616557636
Christchurch,-43.5333,172.6333,60.01,88,75,8.05,NZ,1616557382
Māngrol,21.1167,70.1167,84.0,43,0,11.52,IN,1616557637
Oneonta,42.4529,-75.0638,46.99,64,99,3.89,US,1616557583
Bambous Virieux,-20.3428,57.7575,84.0,94,20,3.44,MU,1616557638
Tual,-5.6667,132.75,83.26,74,89,5.39,ID,1616557639
Lerwick,60.1545,-1.1494,44.6,65,75,35.68,GB,1616557639
Vardø,70.3705,31.1107,32.0,74,0,31.07,NO,1616557639
Semme,46.1963,1.5007,41.0,75,0,3.44,FR,1616557640
Túquerres,1.0923,-77.6209,47.62,96,100,3.27,CO,1616557640
Inhambane,-23.865,35.3833,70.14,73,11,8.23,MZ,1616557574
Broken Hill,-31.95,141.4333,73.4,40,0,14.97,AU,1616557641
Deputatsky,69.3,139.9,-5.12,84,100,3.78,RU,1616557642
Muborak,39.2553,65.1528,62.24,51,64,11.59,UZ,1616557642
Pouembout,-21.1333,164.9,81.59,64,84,3.53,NC,1616557643
Barra de Tecoanapa,16.5167,-98.75,75.74,66,0,5.41,MX,1616557643
Verkhoyansk,67.5447,133.385,-6.02,81,100,4.41,RU,1616557445
Sinop Province,41.7711,34.8709,31.59,98,100,6.85,TR,1616557644
Udachny,66.4167,112.4,-0.99,79,100,1.86,RU,1616557644
Beyneu,45.3167,55.2,44.71,58,92,24.14,KZ,1616557579
Lüderitz,-26.6481,15.1594,64.45,81,0,6.6,NA,1616557645
Cayenne,4.9333,-52.3333,80.01,89,75,3.44,GF,1616557645
Misratah,32.3754,15.0925,55.11,49,46,22.28,LY,1616557645
Torres,-29.3353,-49.7269,70.83,93,100,5.19,BR,1616557646
Port Lincoln,-34.7333,135.8667,69.62,70,29,17.02,AU,1616557646
Leshukonskoye,64.8989,45.7622,30.54,87,77,10.38,RU,1616557646
Thinadhoo,0.5333,72.9333,82.69,73,77,6.58,MV,1616557647
Pisco,-13.7,-76.2167,69.8,78,75,12.66,PE,1616557383
Claveria,18.6074,121.0832,83.71,70,5,9.01,PH,1616557647
Turukhansk,65.8167,87.9833,18.61,93,100,19.37,RU,1616557648
Alappuzha,9.49,76.3264,82.65,71,40,2.98,IN,1616557648
Los Zacatones,22.95,-102.05,58.21,25,100,13.38,MX,1616557648
Miles City,46.4083,-105.8406,35.6,60,90,9.22,US,1616557649
Aketi,2.7388,23.7833,69.1,96,71,0.65,CD,1616557649
Kumul,42.8,93.45,55.89,20,100,1.52,CN,1616557649
Vanavara,60.34,102.2797,19.51,75,30,5.7,RU,1616557650
Barreirinhas,-2.7469,-42.8264,75.2,90,100,4.97,BR,1616557624
Quang Ngai,15.1167,108.8,80.38,71,80,7.16,VN,1616557650
Poum,-20.2333,164.0167,79.72,72,41,17.47,NC,1616557650
Mossamedes,-15.1961,12.1522,72.43,83,100,6.29,AO,1616557651
Great Yarmouth,52.6083,1.7305,37.99,93,74,5.75,GB,1616557651
Brae,60.3964,-1.353,44.6,65,75,35.68,GB,1616557652
Haldwani,29.2167,79.5167,85.55,18,26,5.06,IN,1616557465
Songadh,21.1667,73.5667,90.7,26,0,6.4,IN,1616557652
Eureka,40.8021,-124.1637,50.0,82,0,1.99,US,1616557449
Duki,30.1541,68.5728,65.23,23,1,1.05,PK,1616557653
Chiusi,43.016,11.9475,35.01,66,0,2.48,IT,1616557653
Chiredzi,-21.05,31.6667,61.3,94,8,3.27,ZW,1616557653
Bārmer,25.75,71.3833,81.0,16,0,8.43,IN,1616557653
Verkhniye Tatyshly,56.2912,55.8575,27.54,96,97,7.36,RU,1616557654
Voskresenskoye,56.8381,45.4317,9.28,98,94,3.33,RU,1616557654
Zhigansk,66.7697,123.3711,-12.41,87,60,7.31,RU,1616557655
Kyra,49.5776,111.9753,42.89,50,96,8.55,RU,1616557655
Siverskiy,59.3544,30.0783,36.0,75,0,4.47,RU,1616557655
Zunyi,27.6867,106.9072,62.67,57,1,6.69,CN,1616557656
Assiut,27.181,31.1837,62.76,34,1,13.13,EG,1616557656
Auxerre,47.8,3.5667,34.0,83,8,3.11,FR,1616557656
Grand Gaube,-20.0064,57.6608,84.0,79,9,1.99,MU,1616557657
Faanui,-16.4833,-151.75,84.06,73,9,20.15,PF,1616557657
Oriximiná,-1.7656,-55.8661,73.51,94,87,2.28,BR,1616557657
Thibodaux,29.7958,-90.8229,61.0,97,100,55.01,US,1616557658
Los Llanos de Aridane,28.6585,-17.9182,62.6,72,75,8.05,ES,1616557658
Berbera,10.4396,45.0143,77.09,64,0,2.21,SO,1616557658
Hualmay,-11.0964,-77.6139,70.81,80,100,9.26,PE,1616557659
Joshīmath,30.5667,79.5667,58.62,41,20,3.56,IN,1616557659
Ponta do Sol,32.6667,-17.1,54.0,61,56,3.0,PT,1616557660
Torbay,47.6666,-52.7314,39.99,56,90,17.27,CA,1616557660
Mizdah,31.4451,12.9801,43.81,69,5,8.55,LY,1616557660
Cap Malheureux,-19.9842,57.6142,84.0,79,8,1.99,MU,1616557661
Inírida,3.8653,-67.9239,70.45,98,95,2.13,CO,1616557661
Salalah,17.0151,54.0924,71.6,49,0,3.44,OM,1616557662
Kilindoni,-7.9139,39.6668,81.55,76,38,2.86,TZ,1616557662
Half Moon Bay,37.4636,-122.4286,62.6,25,1,17.27,US,1616557663
Tessalit,20.1986,1.0114,65.19,10,7,8.48,ML,1616557664
Atar,20.5169,-13.0499,74.43,13,17,5.7,MR,1616557665
Whitianga,-36.8333,175.7,75.0,58,12,10.0,NZ,1616557665
Port Macquarie,-31.4333,152.9167,86.0,44,0,1.99,AU,1616557488
Dabat,12.9842,37.765,59.63,23,6,6.51,ET,1616557666
Tirat Carmel,32.7617,34.9719,57.0,85,1,3.0,IL,1616557666
Miracema do Tocantins,-9.5618,-48.3967,73.44,90,100,1.97,BR,1616557667
Dikson,73.5069,80.5464,-2.54,85,100,4.36,RU,1616557667
Lavrentiya,65.5833,-171.0,19.99,95,100,4.54,RU,1616557668
Natitingou,10.3042,1.3796,82.4,69,20,11.5,BJ,1616557668
Souillac,-20.5167,57.5167,77.0,94,20,3.44,MU,1616557668
Guerrero Negro,27.9769,-114.0611,58.46,72,65,21.36,MX,1616557669
Aswān,24.0934,32.907,70.41,31,1,20.31,EG,1616557669
Coyhaique,-45.5752,-72.0662,38.77,95,7,7.67,CL,1616557670
Naze,28.3667,129.4833,66.2,77,75,16.11,JP,1616557670
Thanh Hoa,19.8,105.7667,73.53,63,98,2.98,VN,1616557670
Jumla,29.2747,82.1838,51.96,46,100,3.49,NP,1616557671
Tura,25.5198,90.2201,91.72,14,5,6.38,IN,1616557671
Upata,8.0086,-62.3989,75.99,85,97,4.0,VE,1616557672
Katherine,-14.4667,132.2667,91.4,52,99,5.75,AU,1616557672
Namatanai,-3.6667,152.4333,83.25,72,63,9.4,PG,1616557604
Solano,38.2333,-121.9511,62.01,25,1,18.41,US,1616557673
Iracoubo,5.4802,-53.2011,76.19,89,100,11.59,GF,1616557673
Santa Maria,-29.6842,-53.8069,68.0,100,90,6.91,BR,1616557640
Codrington,-38.2667,141.9667,62.76,92,100,8.57,AU,1616557673
Oktyabr'skoye,43.0645,44.7417,41.0,100,100,8.95,RU,1616557674
Bela,25.9333,81.9833,92.37,15,50,15.57,IN,1616557675
Bandarbeyla,9.4942,50.8122,77.02,60,6,3.0,SO,1616557676
Cidreira,-30.1811,-50.2056,72.03,91,100,9.37,BR,1616557676
Narsaq,60.9167,-46.05,17.6,41,90,6.91,GL,1616557676
San Patricio,28.017,-97.5169,71.6,83,75,12.66,US,1616557677
Kushiro,42.975,144.3747,50.0,57,40,14.97,JP,1616557677
Whitehorse,60.7161,-135.0538,21.0,86,90,9.22,CA,1616557678
San Isidro,-12.1167,-77.05,73.99,78,0,10.36,PE,1616557679
Trelleborg,55.3751,13.1569,42.8,87,90,11.5,SE,1616557679
Waingapu,-9.6567,120.2641,86.13,67,23,5.95,ID,1616557663
Pokoynoye,44.8097,44.2517,42.8,93,100,7.2,RU,1616557680
Bud,39.447,-86.1758,60.01,74,100,14.0,US,1616557681
Elko,41.0002,-115.5012,33.01,73,49,4.0,US,1616557503
Kutum,14.2,24.6667,75.02,15,69,3.91,SD,1616557682
Menongue,-14.6585,17.691,61.0,94,87,2.62,AO,1616557682
Vestmannaeyjar,63.4427,-20.2734,37.56,64,100,20.04,IS,1616557172
Ortaköy,38.7373,34.0387,33.8,93,75,12.66,TR,1616557683
Slobodskoy,58.7322,50.1772,16.39,95,97,8.25,RU,1616557683
Coihueco,-36.6167,-71.8333,60.8,67,0,6.91,CL,1616557684
Sept-Îles,50.2001,-66.3821,42.8,52,40,6.91,CA,1616557684
Guangming,45.3333,122.7833,54.37,18,68,8.61,CN,1616557684
Cockburn Town,21.4612,-71.1419,77.5,78,0,15.57,TC,1616557677
Ukiah,39.1502,-123.2078,55.4,47,1,3.15,US,1616557629
Užice,43.8586,19.8488,30.2,100,90,9.22,RS,1616557685
Moroto,2.5345,34.6666,69.44,49,31,10.22,UG,1616557685
Kudahuvadhoo,2.6708,72.8944,82.67,66,76,3.83,MV,1616557686
Mana,5.6592,-53.7767,76.39,89,100,9.95,GF,1616557686
Mocorito,25.4833,-107.9167,55.99,69,73,1.99,MX,1616557687
Malanville,11.8685,3.3899,84.0,31,77,4.72,BJ,1616557687
Husavik,66.0449,-17.3389,32.0,80,90,4.61,IS,1616557688
Muzhi,65.3667,64.6667,14.47,86,29,5.06,RU,1616557688
Gambēla,8.25,34.5833,78.8,56,78,3.53,ET,1616557689
Comodoro Rivadavia,-45.8667,-67.5,59.0,31,0,21.85,AR,1616557689
Mayuge,0.4597,33.4803,64.98,81,32,4.79,UG,1616557689
Berlevåg,70.8578,29.0864,33.33,68,30,31.05,NO,1616557690
Mersing,2.4312,103.8405,82.4,89,20,5.75,MY,1616557690
Gorgan,36.8387,54.4348,53.6,87,0,4.61,IR,1616557690
Pemba,-12.974,40.5178,78.8,94,75,4.61,MZ,1616557691
Yining,29.0361,114.5636,68.81,50,0,1.19,CN,1616557691
Roebourne,-20.7833,117.1333,92.46,36,8,8.12,AU,1616557692
Altay,47.8667,88.1167,35.6,86,100,3.91,CN,1616557692
Barbastro,42.0356,0.1269,43.0,75,0,2.3,ES,1616557693
Mahon,39.8885,4.2658,48.2,87,20,4.61,ES,1616557693
Give,55.8398,9.25,42.01,87,90,10.36,DK,1616557694
Yarmouth,41.7057,-70.2286,46.4,87,1,5.48,US,1616557694
Lokomotivnyy,53.0118,60.5684,22.73,90,100,8.5,RU,1616557695
Bull Savanna,17.8868,-77.5902,72.54,85,3,6.42,JM,1616557695
Baie-Comeau,49.2168,-68.1489,39.2,75,75,3.44,CA,1616557695
Maunabo,18.0072,-65.8993,77.0,86,53,1.01,PR,1616557696
Nuuk,64.1835,-51.7216,8.6,61,90,11.5,GL,1616557697
Georgiyevka,43.0369,74.7114,41.0,87,40,6.71,KZ,1616557697
Fare,-16.7,-151.0167,83.8,73,3,19.24,PF,1616557698
Lovozero,68.005,35.0117,24.01,81,84,10.29,RU,1616557698
Port Blair,11.6667,92.75,86.83,64,100,8.77,IN,1616557524
Bagdarin,54.4333,113.6,30.92,62,100,3.36,RU,1616557699
Mitsamiouli,-11.3847,43.2844,82.26,73,44,4.09,KM,1616557699
Portree,57.4129,-6.1942,37.99,88,64,7.0,GB,1616557700
Kieta,-6.2167,155.6333,83.73,71,100,3.85,PG,1616557700
Lereşti,45.3333,25.0667,25.0,79,61,6.35,RO,1616557701
Show Low,34.2542,-110.0298,32.0,93,90,7.78,US,1616557701
Saldanha,-33.0117,17.9442,69.8,64,23,11.5,ZA,1616557702
Kropotkin,45.4375,40.5756,35.01,88,100,6.35,RU,1616557702
Saint-Joseph,-21.3667,55.6167,80.6,69,0,4.61,RE,1616557702
Sibolga,1.7427,98.7792,77.02,87,100,2.04,ID,1616557703
Sambava,-14.2667,50.1667,75.79,90,63,3.87,MG,1616557630
Homer,59.6425,-151.5483,30.2,64,1,8.05,US,1616557703
San Quintín,30.4833,-115.95,55.45,76,52,13.31,MX,1616557704
Adrar,20.5022,-10.0711,68.97,15,0,14.54,MR,1616557625
Eyl,7.9803,49.8164,75.45,67,33,8.03,SO,1616557704
Mastic Beach,40.7668,-72.8521,48.99,81,1,6.38,US,1616557705
Nizwá,22.9333,57.5333,76.37,25,0,3.22,OM,1616557705
La Tuque,47.4334,-72.7824,35.6,64,100,1.14,CA,1616557705
Tautira,-17.7333,-149.15,87.8,62,20,2.3,PF,1616557706
Yangi Marg`ilon,40.4272,71.7189,51.8,71,4,5.01,UZ,1616557173
Constitución,-35.3333,-72.4167,56.21,89,3,10.18,CL,1616557707
Kaeo,-35.1,173.7833,62.67,82,73,2.86,NZ,1616557707
Galatiní,40.3167,21.55,30.2,59,6,8.05,GR,1616557708
Itarema,-2.9248,-39.9167,76.08,87,44,6.64,BR,1616557708
Jesús María,-30.9815,-64.0942,62.01,94,0,4.61,AR,1616557708
Bubaque,11.2833,-15.8333,76.77,66,7,14.7,GW,1616557709
Bontang,0.1333,117.5,83.12,71,87,7.72,ID,1616557709
Libertador General San Martín,-23.8064,-64.7876,69.01,95,100,1.01,AR,1616557710
Hailākāndi,24.6833,92.5667,93.6,15,0,3.0,IN,1616557710
Eunice,30.4944,-92.4176,62.6,88,90,8.05,US,1616557698
Rāghogarh,24.45,77.2,83.66,28,0,7.92,IN,1616557711
Huarmey,-10.0681,-78.1522,71.65,81,100,8.37,PE,1616557711
Mount Gambier,-37.8333,140.7667,66.2,88,75,13.8,AU,1616557711
Ixtapa,20.7,-105.2,71.01,63,43,2.24,MX,1616557712
Gladstone,-23.85,151.25,77.0,78,75,17.27,AU,1616557712
Sylacauga,33.1732,-86.2516,60.8,82,40,3.44,US,1616557712
Nicoya,10.1483,-85.452,77.0,73,20,5.75,CR,1616557713
Vila Franca do Campo,37.7167,-25.4333,53.6,87,20,13.8,PT,1616557713
São João da Barra,-21.6403,-41.0511,73.65,89,0,4.07,BR,1616557714
Irbeyskoye,55.6428,95.4522,31.91,79,93,7.45,RU,1616557714
Hofn,64.2539,-15.2082,34.52,47,9,7.23,IS,1616557715
Svetlaya,46.5389,138.3297,37.02,45,0,7.25,RU,1616557715
Dom Pedrito,-30.9828,-54.6731,64.45,95,89,5.26,BR,1616557715
Ambulu,-8.345,113.6058,85.35,68,66,4.83,ID,1616557716
Oodweyne,9.4092,45.064,66.07,31,0,4.23,SO,1616557716
Avesta,60.1455,16.1679,39.99,85,59,8.99,SE,1616557717
Kimbe,-5.5502,150.1429,85.35,70,99,5.37,PG,1616557671
Stromness,58.965,-3.296,41.0,75,9,23.02,GB,1616557717
Sturgeon Bay,44.8342,-87.377,44.6,81,90,10.36,US,1616557718
San Jose,37.3394,-121.895,61.0,31,1,17.27,US,1616557495
Punta Alta,-38.8759,-62.0736,70.88,50,68,15.84,AR,1616557578
Mareeba,-17.0,145.4333,91.99,66,69,10.36,AU,1616557718
Den Helder,52.9599,4.7593,43.0,93,10,10.36,NL,1616557719
Calatayud,41.3535,-1.6432,42.8,100,61,2.3,ES,1616557719
Sokoto,13.0609,5.239,81.36,17,93,8.57,NG,1616557719
Lamu,-2.2717,40.902,80.6,83,40,3.44,KE,1616557720
Ulaangom,49.9811,92.0667,19.58,84,100,1.41,MN,1616557720
Mae Sai,20.4335,99.8762,80.6,69,1,3.44,TH,1616557721
Sungai Besar,3.6746,100.9867,84.2,79,40,2.3,MY,1616557721
Saurimo,-9.6608,20.3916,63.72,95,72,2.33,AO,1616557722
Mayumba,-3.432,10.6554,78.48,84,88,3.33,GA,1616557722
Bhawana,31.5692,72.649,68.32,53,1,8.66,PK,1616557723
Estelle,29.8458,-90.1067,63.0,100,90,10.36,US,1616557723
Ust-Maya,60.4167,134.5333,-1.25,79,100,7.92,RU,1616557724
Taksimo,56.3444,114.8794,25.84,78,100,1.83,RU,1616557724
Westerland,54.9079,8.3033,42.01,89,18,5.99,DE,1616557725
Mazagão,-0.115,-51.2894,78.8,94,90,3.44,BR,1616557725
Campo Maior,-4.8278,-42.1686,71.91,96,82,3.6,BR,1616557725
Sulina,45.1559,29.6536,32.56,66,2,14.2,RO,1616557726
Harindānga,22.0383,88.3214,86.0,66,40,5.75,IN,1616557726
Manjacaze,-24.7117,33.8828,65.89,88,30,4.36,MZ,1616557727
College,64.8569,-147.8028,17.6,53,75,4.61,US,1616557727
Egvekinot,66.3167,-179.1667,14.45,93,100,7.49,RU,1616557727
Riohacha,11.5444,-72.9072,76.82,81,58,9.6,CO,1616557726
Skibbereen,51.55,-9.2667,37.4,93,40,6.91,IE,1616557728
Henties Bay,-22.116,14.2845,63.0,94,12,5.01,NA,1616557728
Nanortalik,60.1432,-45.2371,21.7,71,67,8.95,GL,1616557729
Departamento de Maldonado,-34.6667,-54.9167,66.2,88,0,9.22,UY,1616557729
Belmonte,-15.8631,-38.8828,73.4,88,20,4.74,BR,1616557729
Nynäshamn,58.9034,17.9479,42.01,52,17,16.42,SE,1616557730
Melville,40.7934,-73.4151,48.2,87,1,4.61,US,1616557730
Sitka,57.0531,-135.33,42.8,87,90,6.91,US,1616557731
Waddān,29.1614,16.139,46.71,58,0,10.71,LY,1616557731
Tateyama,34.9833,139.8667,66.2,59,20,16.11,JP,1616557731
Yambio,4.5721,28.3955,68.05,87,100,2.53,SS,1616557732
Wajir,1.7471,40.0573,78.8,73,90,9.22,KE,1616557732
Tiarei,-17.5333,-149.3333,87.8,62,20,2.3,PF,1616557733
Yeppoon,-23.1333,150.7333,91.4,55,40,8.05,AU,1616557733
Ambilobe,-13.2,49.05,74.98,92,13,1.88,MG,1616557734
Puerto Nariño,-3.7703,-70.3831,73.4,100,75,2.3,CO,1616557734
Creel,27.75,-107.6333,34.79,33,0,12.44,MX,1616557734
Yanam,16.7333,82.2167,84.2,65,40,3.44,IN,1616557735
Zlobin,45.2924,14.6541,44.6,45,0,3.44,HR,1616557735
Acapulco de Juárez,16.8634,-99.8901,74.98,62,0,5.88,MX,1616557736
Mazamet,43.49,2.373,39.2,81,0,2.3,FR,1616557736
Marsá Maţrūḩ,31.3525,27.2453,55.65,60,0,24.27,EG,1616557737
Dunedin,-45.8742,170.5036,57.99,73,100,3.0,NZ,1616557737
Marysville,48.0518,-122.1771,48.0,76,90,3.44,US,1616557552
Yenagoa,4.9247,6.2642,75.31,93,100,3.29,NG,1616557737
Forssa,60.8146,23.6215,32.0,89,99,1.99,FI,1616557738
Byron Bay,-28.65,153.6167,86.0,54,40,17.27,AU,1616557569
Takoradze,4.8845,-1.7554,79.2,84,100,8.57,GH,1616557738
Haines Junction,60.7522,-137.5108,24.8,30,100,8.05,CA,1616557739
Natal,-5.795,-35.2094,77.0,88,20,4.61,BR,1616557452
Mar del Plata,-38.0023,-57.5575,66.0,94,0,6.91,AR,1616557739
Atherton,53.5237,-2.4935,46.99,80,100,5.55,GB,1616557740
Alice Springs,-23.7,133.8833,87.01,65,75,5.75,AU,1616557740
Vostok,46.4856,135.8833,32.32,64,30,1.25,RU,1616557740
Najrān,17.4924,44.1277,60.8,20,0,5.75,SA,1616557741
Olafsvik,64.8945,-23.7142,34.3,61,100,19.39,IS,1616557741
Nishihara,26.1842,127.7558,71.6,64,90,11.5,JP,1616557742
Uzhur,55.3036,89.8339,30.2,95,100,10.65,RU,1616557742
Ust'-Barguzin,53.45,108.9833,32.76,94,100,11.81,RU,1616557742
Micomeseng,2.1462,10.6164,69.22,99,99,1.63,GQ,1616557743
Qasigiannguit,68.8193,-51.1922,-5.8,65,75,11.5,GL,1616557743
Pandan,14.0453,124.1694,84.29,66,62,13.51,PH,1616557743
Kayerkan,69.3497,87.7602,9.05,91,100,14.32,RU,1616557744
Waverley,-25.7023,28.2591,63.0,94,98,5.75,ZA,1616557744
Ferme-Neuve,46.7001,-75.4493,41.0,52,100,1.81,CA,1616557744
Langsa,4.4683,97.9683,87.3,58,87,3.18,ID,1616557745
Tegul'det,57.3064,88.1667,28.9,85,100,8.39,RU,1616557708
Dehlorān,32.6941,47.2679,75.45,37,100,13.11,IR,1616557745
Lagos,6.5833,3.75,78.98,85,100,5.19,NG,1616557470
Verkhnevilyuysk,63.4453,120.3167,2.88,85,100,1.39,RU,1616557746
Bakchar,57.0186,82.0711,26.06,95,100,7.63,RU,1616557746
Ilām,26.9167,87.9167,81.48,16,16,6.71,NP,1616557746
Yuzhnyy,53.2542,83.6936,28.4,86,75,29.08,RU,1616557747
Tavda,58.0425,65.2726,27.97,91,86,8.95,RU,1616557747
Batesville,35.7698,-91.641,62.6,51,1,6.91,US,1616557637
Laas,46.6166,10.7002,35.01,69,0,9.22,IT,1616557748
Kamina,-8.7386,24.9906,63.73,96,100,3.65,CD,1616557748
Xiaoweizhai,26.1903,107.5125,66.36,57,0,5.48,CN,1616557748
Werda,-25.2667,23.2833,64.02,92,100,7.72,BW,1616557749
Campbell River,50.0163,-125.2446,43.0,93,90,3.44,CA,1616557749
Glens Falls,43.3095,-73.644,44.01,48,1,3.44,US,1616557655
Whyalla,-33.0333,137.5833,71.6,56,0,11.5,AU,1616557750
Conceição do Araguaia,-8.2578,-49.2647,72.75,93,100,1.45,BR,1616557750
Shar,49.5886,81.0453,26.49,80,80,16.98,KZ,1616557751
Vestmanna,62.1564,-7.1664,39.2,81,40,19.57,FO,1616557751
Khovd,48.0056,91.6419,45.68,15,100,1.7,MN,1616557751
Derzhavīnsk,51.1,66.3167,18.14,94,100,11.72,KZ,1616557752
Pasni,25.2631,63.471,75.58,65,1,1.97,PK,1616557653
Balkanabat,39.5108,54.3671,71.44,27,100,8.93,TM,1616557752
Philadelphia,39.9523,-75.1638,52.0,76,40,6.91,US,1616557604
Alta Floresta,-9.8756,-56.0861,75.2,100,0,2.19,BR,1616557752
Tigzirt,36.8886,4.1198,50.97,63,0,5.28,DZ,1616557753
Cuamba,-14.8031,36.5372,65.5,97,40,3.36,MZ,1616557753
Monrovia,6.3005,-10.7969,77.0,94,40,10.18,LR,1616557754
Esperance,-33.8667,121.9,64.4,52,90,2.3,AU,1616557754
Batagay,67.6333,134.6333,-8.19,84,100,3.98,RU,1616557755
Skovorodino,53.9833,123.9167,26.73,78,99,2.91,RU,1616557755
Nakskov,54.8373,11.1284,42.01,84,1,4.0,DK,1616557756
San Angelo,31.4638,-100.437,61.0,47,1,9.22,US,1616557715
Hearst,49.6835,-83.6665,41.0,70,100,3.44,CA,1616557757
Belém,-1.4558,-48.5044,77.0,94,40,4.61,BR,1616557757
Padang,-0.9492,100.3543,84.2,74,40,2.3,ID,1616557757
Wahiawā,21.5028,-158.0236,75.0,88,90,6.91,US,1616557758
Andros Town,24.7,-77.7667,71.6,78,20,7.78,BS,1616557758
Assiniboia,49.6334,-105.9845,26.6,80,88,4.61,CA,1616557758
Rafai,4.95,23.9167,68.09,91,89,1.63,CF,1616557759
Taree,-31.9,152.4667,82.0,47,33,17.27,AU,1616557759
Picota,-6.9197,-76.3304,71.69,99,100,1.36,PE,1616557760
Novooleksiyivka,46.2269,34.6428,29.39,74,31,10.25,UA,1616557761
Pacific Grove,36.6177,-121.9166,54.0,76,1,8.05,US,1616557539
Gemünden am Main,50.05,9.7,34.0,91,0,1.01,DE,1616557762
Brenham,30.1669,-96.3977,60.8,67,1,8.19,US,1616557762
Laguna,38.421,-121.4238,60.8,21,1,12.66,US,1616557763
Riyadh,24.6877,46.7219,75.2,14,0,6.91,SA,1616557680
Nelson Bay,-32.7167,152.15,82.0,47,40,24.16,AU,1616557763
Salinópolis,-0.6136,-47.3561,77.22,87,99,9.78,BR,1616557751
Tuy Hoa,13.0833,109.3,75.09,89,100,7.74,VN,1616557764
Antalaha,-14.9003,50.2788,76.78,83,41,3.22,MG,1616557764
Ceres,37.5949,-120.9577,60.8,20,1,17.27,US,1616557633
Gold Coast,-28.0,153.4333,89.01,48,8,12.66,AU,1616557615
Paphos,34.7667,32.4167,59.0,67,75,24.16,CY,1616557765
Awjilah,29.1081,21.2869,53.42,52,2,19.53,LY,1616557766
Marabba,12.35,32.1833,88.48,19,79,2.95,SD,1616557766
Korla,41.7597,86.1469,52.05,31,100,5.97,CN,1616557632
Samarai,-10.6167,150.6667,85.71,70,96,13.91,PG,1616557767
Tilichiki,60.4667,166.1,16.18,70,42,13.62,RU,1616557767
Hervey Bay,-25.2986,152.8535,82.0,85,17,4.0,AU,1616557767
Marabu,4.4148,114.0089,84.2,84,40,4.61,MY,1616557768
Jardim,-21.4803,-56.1381,73.15,72,16,1.74,BR,1616557768
Channel-Port aux Basques,47.5702,-59.1367,35.22,85,63,4.7,CA,1616557769
Nara,34.6851,135.8049,68.0,48,40,3.44,JP,1616557599
Talara,-4.5772,-81.2719,73.67,83,100,9.86,PE,1616557769
Krasnyy Klyuch,55.3863,56.6529,28.81,96,100,9.31,RU,1616557769
Pangkalanbuun,-2.6833,111.6167,92.86,48,82,2.1,ID,1616557770
Esim,4.8699,-2.2405,79.43,84,100,10.78,GH,1616557770
Redlands,34.0556,-117.1825,61.0,39,20,8.05,US,1616557771
Sun City West,33.662,-112.3413,57.2,62,40,10.36,US,1616557771
Sarakhs,36.5449,61.1577,62.6,42,100,6.91,IR,1616557772
Kamaishi,39.2667,141.8833,59.0,36,40,9.22,JP,1616557772
Kununurra,-15.7667,128.7333,93.2,62,40,2.3,AU,1616557773
Mount Isa,-20.7333,139.5,82.4,61,90,12.66,AU,1616557773
Tommot,58.9564,126.2925,10.44,79,100,6.98,RU,1616557773
Necochea,-38.5473,-58.7368,60.01,81,3,5.99,AR,1616557774
Ayna,-12.65,-73.9167,57.79,92,95,1.43,PE,1616557774
Sandviken,60.6167,16.7667,41.0,78,69,11.01,SE,1616557774
Majene,-3.5403,118.9707,85.75,67,68,5.17,ID,1616557774
Yulara,-25.2406,130.9889,82.4,47,0,8.05,AU,1616557775
Wagar,16.1525,36.2032,84.47,24,1,6.73,SD,1616557775
Natchez,31.5604,-91.4032,62.6,88,90,11.5,US,1616557775
Pechenga,69.5259,31.1703,28.4,74,0,17.27,RU,1616557776
Termoli,41.9888,14.9895,46.44,64,51,17.65,IT,1616557776
Montepuez,-13.1256,38.9997,68.54,98,99,4.72,MZ,1616557776
Atambua,-9.1061,124.8925,82.02,74,61,4.16,ID,1616557777
Balgazyn,51.0,95.2,37.24,67,68,4.45,RU,1616557777
Beringovskiy,63.05,179.3167,28.31,85,45,6.13,RU,1616557694
